City_ID,City,Country,Date,Lat,Long,Max Temp,Humidity,Cloudiness,Wind Speed,Current Description,Rain inches (last 3 hrs),Snow inches (last 3 hrs)
0,Sitka,US,2020-04-05 19:32:58,57.05,-135.33,39.2,64,75,3.36,broken clouds,0.0,0.0
1,Cidreira,BR,2020-04-05 19:32:58,-30.18,-50.21,71.26,76,0,15.3,clear sky,0.0,0.0
2,Puerto Ayora,EC,2020-04-05 19:32:05,-0.74,-90.35,84.2,74,20,13.87,few clouds,0.0,0.0
3,Sao Joao Da Barra,BR,2020-04-05 19:32:58,-21.64,-41.05,78.8,73,90,9.17,overcast clouds,0.0,0.0
4,Ponta Do Sol,PT,2020-04-05 19:32:09,32.67,-17.1,68.0,82,20,4.7,few clouds,0.0,0.0
5,Ludvika,SE,2020-04-05 19:32:58,60.15,15.19,43.0,81,43,2.24,scattered clouds,0.0,0.0
6,Port Alfred,ZA,2020-04-05 19:32:07,-33.59,26.89,64.0,88,100,3.0,overcast clouds,0.0,0.0
7,Khatanga,RU,2020-04-05 19:32:08,71.97,102.5,30.78,97,100,14.54,overcast clouds,0.0,0.0
8,Meulaboh,ID,2020-04-05 19:32:59,4.14,96.13,79.75,81,100,3.87,moderate rain,3.55,0.0
9,Mataura,NZ,2020-04-05 19:31:31,-46.19,168.86,60.01,81,100,5.01,overcast clouds,0.0,0.0
10,New Norfolk,AU,2020-04-05 19:27:59,-42.78,147.06,50.0,57,90,17.22,overcast clouds,0.0,0.0
11,Bathsheba,BB,2020-04-05 19:32:59,13.22,-59.52,84.2,66,75,14.99,broken clouds,0.0,0.0
12,Campbellton,CA,2020-04-05 19:32:59,48.01,-66.67,38.16,94,99,1.36,light rain,0.12,0.0
13,Ushuaia,AR,2020-04-05 19:26:50,-54.8,-68.3,41.0,80,75,32.21,shower rain,0.0,0.0
14,Cape Town,ZA,2020-04-05 19:32:08,-33.93,18.42,61.0,93,75,5.82,broken clouds,0.0,0.0
15,Qaanaaq,GL,2020-04-05 19:32:04,77.48,-69.36,13.12,82,100,1.61,overcast clouds,0.0,0.0
16,Rikitea,PF,2020-04-05 19:32:04,-23.12,-134.97,74.84,65,94,9.37,overcast clouds,0.0,0.0
17,Berlevag,NO,2020-04-05 19:32:59,70.86,29.09,26.6,73,20,18.34,few clouds,0.0,0.0
18,Okhotsk,RU,2020-04-05 19:32:13,59.38,143.3,20.19,97,100,4.27,light snow,0.0,0.38
19,Jamestown,US,2020-04-05 19:32:12,42.1,-79.24,50.0,70,20,10.29,few clouds,0.0,0.0
20,Fortuna,US,2020-04-05 19:32:10,40.6,-124.16,52.0,76,75,10.29,broken clouds,0.0,0.0
21,Provideniya,RU,2020-04-05 19:33:00,64.38,-173.3,6.67,86,100,11.86,overcast clouds,0.0,0.0
22,Halifax,CA,2020-04-05 19:29:35,44.65,-63.57,50.0,49,75,4.7,broken clouds,0.0,0.0
23,Victoria,HK,2020-04-05 19:33:00,22.29,114.16,64.4,88,40,8.05,light rain,0.0,0.0
24,Hilo,US,2020-04-05 19:33:00,19.73,-155.09,73.4,88,90,5.82,light rain,0.0,0.0
25,Tasiilaq,GL,2020-04-05 19:33:00,65.61,-37.64,9.77,78,100,8.72,overcast clouds,0.0,0.0
26,Hobart,AU,2020-04-05 19:30:03,-42.88,147.33,50.0,57,90,17.22,overcast clouds,0.0,0.0
27,Port Hardy,CA,2020-04-05 19:33:00,50.7,-127.42,44.6,70,20,11.41,few clouds,0.0,0.0
28,Lebu,CL,2020-04-05 19:33:00,-37.62,-73.65,60.19,63,0,11.5,clear sky,0.0,0.0
29,Northam,GB,2020-04-05 19:33:00,51.03,-4.22,59.0,77,99,14.0,light rain,0.48,0.0
30,Kikwit,CD,2020-04-05 19:33:00,-5.04,18.82,74.07,78,90,2.68,light rain,0.47,0.0
31,Yellowknife,CA,2020-04-05 19:32:09,62.46,-114.35,21.2,48,20,11.41,few clouds,0.0,0.0
32,Sorland,NO,2020-04-05 19:33:01,67.67,12.69,32.0,86,75,11.41,broken clouds,0.0,0.0
33,Albany,US,2020-04-05 19:32:04,42.6,-73.97,62.01,55,90,4.7,overcast clouds,0.0,0.0
34,Saint-Augustin,CA,2020-04-05 19:33:01,51.23,-58.65,29.41,96,96,6.64,overcast clouds,0.0,0.0
35,Linda,US,2020-04-05 19:33:01,39.13,-121.55,54.0,93,90,10.29,thunderstorm,0.0,0.0
36,Luwingu,ZM,2020-04-05 19:33:01,-10.26,29.93,63.54,57,54,1.34,broken clouds,0.0,0.0
37,Praia,CV,2020-04-05 19:33:01,14.92,-23.51,75.2,64,20,23.04,few clouds,0.0,0.0
38,Acajutla,SV,2020-04-05 19:28:06,13.59,-89.83,84.0,78,13,3.0,light rain,0.19,0.0
39,Walvis Bay,NA,2020-04-05 19:29:26,-22.96,14.51,61.0,82,16,4.7,few clouds,0.0,0.0
40,Anderson,US,2020-04-05 19:31:00,34.53,-82.65,78.8,29,1,12.75,clear sky,0.0,0.0
41,Luderitz,NA,2020-04-05 19:33:01,-26.65,15.16,59.0,87,0,8.05,clear sky,0.0,0.0
42,Karratha,AU,2020-04-05 19:33:01,-20.74,116.85,79.56,64,90,8.75,overcast clouds,0.0,0.0
43,Puerto Princesa,PH,2020-04-05 19:32:14,9.74,118.74,80.6,83,20,2.24,few clouds,0.0,0.0
44,Barrow,US,2020-04-05 19:32:05,71.29,-156.79,19.4,85,75,13.87,broken clouds,0.0,0.0
45,Punta Arenas,CL,2020-04-05 19:32:04,-53.15,-70.92,46.4,61,40,25.28,scattered clouds,0.0,0.0
46,Bethel,US,2020-04-05 19:32:06,41.37,-73.41,64.99,55,20,5.82,few clouds,0.0,0.0
47,Faanui,PF,2020-04-05 19:33:02,-16.48,-151.75,83.48,72,3,9.4,clear sky,0.0,0.0
48,Launceston,AU,2020-04-05 19:33:02,-41.45,147.17,43.0,86,35,8.05,scattered clouds,0.0,0.0
49,Moron,AR,2020-04-05 19:33:02,-34.65,-58.62,78.01,57,100,10.29,overcast clouds,0.0,0.0
50,Rupert,US,2020-04-05 19:33:02,42.62,-113.68,55.99,47,1,5.82,clear sky,0.0,0.0
51,Pemba,MZ,2020-04-05 19:33:03,-12.97,40.52,80.6,83,20,4.7,few clouds,0.0,0.0
52,Kruisfontein,ZA,2020-04-05 19:33:03,-34.0,24.73,63.37,71,100,12.8,overcast clouds,0.0,0.0
53,Coolum Beach,AU,2020-04-05 19:33:03,-26.53,153.1,66.0,89,34,5.21,scattered clouds,0.0,0.0
54,Busselton,AU,2020-04-05 19:32:04,-33.65,115.33,64.0,44,31,13.0,scattered clouds,0.0,0.0
55,Saqqez,IR,2020-04-05 19:33:03,36.25,46.27,46.76,35,44,3.67,scattered clouds,0.0,0.0
56,Hurghada,EG,2020-04-05 19:33:03,27.26,33.81,78.8,36,0,8.37,clear sky,0.0,0.0
57,Dingle,PH,2020-04-05 19:33:03,11.0,122.67,76.35,83,73,8.99,broken clouds,0.0,0.0
58,Mahebourg,MU,2020-04-05 19:33:03,-20.41,57.7,78.8,78,75,10.29,broken clouds,0.0,0.0
59,Kizukuri,JP,2020-04-05 19:33:03,40.81,140.39,34.0,92,96,11.99,snow,0.0,2.41
60,Kapaa,US,2020-04-05 19:32:07,22.08,-159.32,78.8,83,1,6.93,clear sky,0.0,0.0
61,Ola,RU,2020-04-05 19:33:04,59.58,151.28,15.13,95,100,5.93,light snow,0.0,0.2
62,Suluq,LY,2020-04-05 19:33:04,31.67,20.25,59.04,68,83,9.24,broken clouds,0.0,0.0
63,Nome,US,2020-04-05 19:32:13,64.5,-165.41,12.2,92,90,26.4,light snow,0.0,0.0
64,Lieto,FI,2020-04-05 19:33:04,60.51,22.46,37.0,69,98,4.7,overcast clouds,0.0,0.0
65,Sao Filipe,CV,2020-04-05 19:33:04,14.9,-24.5,73.35,76,0,12.24,clear sky,0.0,0.0
66,Kameshkovo,RU,2020-04-05 19:33:04,56.35,41.0,30.97,88,29,10.31,scattered clouds,0.0,0.0
67,San Policarpo,PH,2020-04-05 19:33:04,12.18,125.51,78.58,69,53,6.98,broken clouds,0.0,0.0
68,Kauhajoki,FI,2020-04-05 19:33:04,62.43,22.18,28.99,79,98,2.24,overcast clouds,0.0,0.0
69,Lebork,PL,2020-04-05 19:28:17,54.54,17.75,48.0,42,0,4.7,clear sky,0.0,0.0
70,East London,ZA,2020-04-05 19:33:05,-33.02,27.91,70.57,75,100,10.78,overcast clouds,0.0,0.0
71,Bako,ET,2020-04-05 19:33:05,5.78,36.57,68.23,44,93,8.28,overcast clouds,0.0,0.0
72,Arraial Do Cabo,BR,2020-04-05 19:33:05,-22.97,-42.03,78.8,65,75,6.93,broken clouds,0.0,0.0
73,Olafsvik,IS,2020-04-05 19:33:05,64.89,-23.71,30.76,97,100,57.29,snow,0.0,4.59
74,Piacabucu,BR,2020-04-05 19:33:05,-10.41,-36.43,81.59,83,5,8.99,clear sky,0.0,0.0
75,Narsaq,GL,2020-04-05 19:33:05,60.92,-46.05,28.4,25,27,17.22,scattered clouds,0.0,0.0
76,Carnarvon,AU,2020-04-05 19:32:13,-24.87,113.63,73.4,83,8,11.41,clear sky,0.0,0.0
77,Laguna,US,2020-04-05 19:33:05,38.42,-121.42,55.99,87,90,8.05,heavy intensity rain,0.0,0.0
78,Nizhniy Kuranakh,RU,2020-04-05 19:33:05,58.84,125.49,17.24,91,97,5.03,light snow,0.0,0.46
79,Sao Raimundo Das Mangabeiras,BR,2020-04-05 19:33:06,-7.02,-45.48,80.53,79,91,4.07,moderate rain,4.29,0.0
80,Lukovetskiy,RU,2020-04-05 19:33:06,64.3,41.92,26.6,79,100,6.71,overcast clouds,0.0,0.0
81,Nago,JP,2020-04-05 19:33:06,26.59,127.98,66.2,77,75,4.7,broken clouds,0.0,0.0
82,Norman Wells,CA,2020-04-05 19:33:06,65.28,-126.83,21.2,62,20,23.04,few clouds,0.0,0.0
83,Vaini,TO,2020-04-05 19:31:32,-21.2,-175.2,73.4,83,75,5.82,broken clouds,0.0,0.0
84,Leningradskiy,RU,2020-04-05 19:33:06,69.38,178.42,-1.98,88,100,19.01,overcast clouds,0.0,0.0
85,Atambua,ID,2020-04-05 19:33:06,-9.11,124.89,74.25,77,21,2.21,few clouds,0.0,0.0
86,Bilibino,RU,2020-04-05 19:33:06,68.05,166.44,-7.64,84,68,0.96,broken clouds,0.0,0.0
87,Bluff,NZ,2020-04-05 19:32:11,-46.6,168.33,60.01,81,100,5.01,light rain,0.25,0.0
88,Kushima,JP,2020-04-05 19:33:06,31.46,131.23,49.68,69,25,9.48,scattered clouds,0.0,0.0
89,Winsum,NL,2020-04-05 19:33:07,53.33,6.52,61.0,38,0,5.82,clear sky,0.0,0.0
90,Pasighat,IN,2020-04-05 19:33:07,28.07,95.33,67.1,43,67,4.05,broken clouds,0.0,0.0
91,Castro,BR,2020-04-05 19:32:12,-24.79,-50.01,66.58,52,0,1.72,clear sky,0.0,0.0
92,Aksu,CN,2020-04-05 19:33:07,41.12,80.26,53.64,25,12,4.09,few clouds,0.0,0.0
93,Klaksvik,FO,2020-04-05 19:32:11,62.23,-6.59,48.2,76,100,19.46,overcast clouds,0.0,0.0
94,Belfast,GB,2020-04-05 19:32:57,54.58,-5.93,55.99,87,100,29.97,light rain,0.0,0.0
95,El Tarra,CO,2020-04-05 19:33:07,8.58,-73.09,89.19,56,100,2.24,light rain,1.24,0.0
96,Ugoofaaru,MV,2020-04-05 19:33:07,5.67,73.0,84.09,67,0,4.41,clear sky,0.0,0.0
97,Georgetown,MY,2020-04-05 19:32:04,5.41,100.34,78.8,100,40,5.06,scattered clouds,0.0,0.0
98,Yatou,CN,2020-04-05 19:33:07,37.15,122.38,43.38,63,91,9.44,overcast clouds,0.0,0.0
99,Auce,LV,2020-04-05 19:33:07,56.46,22.9,37.24,88,0,5.35,clear sky,0.0,0.0
100,Mount Gambier,AU,2020-04-05 19:33:08,-37.83,140.77,50.0,93,90,4.7,overcast clouds,0.0,0.0
101,Salalah,OM,2020-04-05 19:33:08,17.02,54.09,80.6,83,0,3.36,clear sky,0.0,0.0
102,Ribeira Grande,PT,2020-04-05 19:33:08,38.52,-28.7,60.8,77,75,10.29,broken clouds,0.0,0.0
103,Dikson,RU,2020-04-05 19:33:08,73.51,80.55,17.58,98,100,4.92,light snow,0.0,0.38
104,Husavik,IS,2020-04-05 19:33:08,66.04,-17.34,28.4,86,90,18.34,overcast clouds,0.0,0.0
105,Avarua,CK,2020-04-05 19:31:32,-21.21,-159.78,80.6,88,75,12.75,light intensity shower rain,0.0,0.0
106,Akdepe,TM,2020-04-05 19:33:08,42.06,59.38,57.2,44,90,6.93,overcast clouds,0.0,0.0
107,Soure,BR,2020-04-05 19:33:08,-0.72,-48.52,81.3,84,83,10.49,light rain,0.52,0.0
108,Taltal,CL,2020-04-05 19:33:08,-25.4,-70.48,71.13,60,5,4.88,clear sky,0.0,0.0
109,Pevek,RU,2020-04-05 19:33:08,69.7,170.31,-8.0,91,100,2.8,overcast clouds,0.0,0.0
110,Yar-Sale,RU,2020-04-05 19:33:09,66.83,70.83,32.43,98,100,3.0,overcast clouds,0.0,0.0
111,Vao,NC,2020-04-05 19:33:09,-22.67,167.48,77.09,77,100,23.24,overcast clouds,0.0,0.0
112,Sembakung,ID,2020-04-05 19:33:09,3.82,117.25,74.91,93,31,1.86,light rain,0.95,0.0
113,Chuy,UY,2020-04-05 19:27:26,-33.7,-53.46,75.76,50,8,6.78,clear sky,0.0,0.0
114,Hermanus,ZA,2020-04-05 19:32:06,-34.42,19.23,59.0,99,97,4.0,light rain,0.36,0.0
115,Baykit,RU,2020-04-05 19:32:12,61.67,96.37,23.27,92,73,4.43,broken clouds,0.0,0.0
116,Touros,BR,2020-04-05 19:33:09,-5.2,-35.46,84.2,83,40,12.75,scattered clouds,0.0,0.0
117,Naze,JP,2020-04-05 19:33:09,28.37,129.48,62.6,67,75,13.87,broken clouds,0.0,0.0
118,Monteagudo,BO,2020-04-05 19:33:09,-19.82,-63.98,83.86,39,22,1.95,light rain,0.27,0.0
119,Lichinga,MZ,2020-04-05 19:33:09,-13.31,35.24,66.2,72,40,3.36,scattered clouds,0.0,0.0
120,Barra Do Garcas,BR,2020-04-05 19:33:09,-15.89,-52.26,95.0,50,40,2.24,thunderstorm,0.0,0.0
121,San Patricio,MX,2020-04-05 19:33:09,19.22,-104.7,86.0,74,40,11.41,scattered clouds,0.0,0.0
122,Kodiak,US,2020-04-05 19:28:03,57.79,-152.41,39.2,38,40,11.41,scattered clouds,0.0,0.0
123,Sabanalarga,CO,2020-04-05 19:33:10,10.63,-74.92,91.4,63,65,10.29,broken clouds,0.0,0.0
124,Sur,OM,2020-04-05 19:33:10,22.57,59.53,85.73,32,55,6.69,broken clouds,0.0,0.0
125,Tuktoyaktuk,CA,2020-04-05 19:33:10,69.45,-133.04,19.4,73,75,23.04,broken clouds,0.0,0.0
126,Ornskoldsvik,SE,2020-04-05 19:33:10,63.29,18.72,32.0,74,100,4.7,overcast clouds,0.0,0.0
127,Tocopilla,CL,2020-04-05 19:33:10,-22.09,-70.2,80.33,41,25,4.72,scattered clouds,0.0,0.0
128,Broome,US,2020-04-05 19:33:10,42.25,-75.83,61.0,58,90,5.82,overcast clouds,0.0,0.0
129,Atuona,PF,2020-04-05 19:32:07,-9.8,-139.03,81.27,76,3,13.8,clear sky,0.0,0.0
130,Saskylakh,RU,2020-04-05 19:27:28,71.92,114.08,30.85,96,99,18.5,overcast clouds,0.0,0.0
131,Ancud,CL,2020-04-05 19:32:08,-41.87,-73.82,55.4,50,20,16.11,few clouds,0.0,0.0
132,Port Elizabeth,ZA,2020-04-05 19:33:11,-33.92,25.57,64.4,82,100,14.99,overcast clouds,0.0,0.0
133,Viru,PE,2020-04-05 19:33:11,-8.42,-78.75,71.6,78,22,10.29,haze,0.0,0.0
134,Ogori,JP,2020-04-05 19:33:11,34.1,131.4,46.4,65,0,2.24,clear sky,0.0,0.0
135,El Alto,PE,2020-04-05 19:33:11,-4.27,-81.21,75.0,71,88,8.93,light rain,0.12,0.0
136,Iqaluit,CA,2020-04-05 19:32:08,63.75,-68.51,8.6,71,20,14.99,few clouds,0.0,0.0
137,Tra Vinh,VN,2020-04-05 19:33:11,9.93,106.35,79.39,81,18,9.46,few clouds,0.0,0.0
138,Brisbane,AU,2020-04-05 19:33:01,-27.47,153.03,64.99,88,5,8.05,clear sky,0.0,0.0
139,Ozernovskiy,RU,2020-04-05 19:33:11,51.5,156.52,34.47,78,0,4.85,clear sky,0.0,0.0
140,Mehamn,NO,2020-04-05 19:33:11,71.04,27.85,26.6,92,90,18.34,snow,0.0,0.0
141,Evensk,RU,2020-04-05 19:33:12,61.95,159.23,4.12,88,70,5.17,broken clouds,0.0,0.0
142,Sorong,ID,2020-04-05 19:33:12,-0.88,131.25,76.26,87,71,2.15,light rain,0.88,0.0
143,Airai,TL,2020-04-05 19:33:12,-8.93,125.41,60.84,67,20,1.34,few clouds,0.0,0.0
144,San Quintin,MX,2020-04-05 19:33:12,30.48,-115.95,61.66,60,10,10.18,clear sky,0.0,0.0
145,Bandarbeyla,SO,2020-04-05 19:33:12,9.49,50.81,80.28,68,0,7.87,clear sky,0.0,0.0
146,Yenagoa,NG,2020-04-05 19:33:12,4.92,6.26,79.84,79,2,5.61,clear sky,0.0,0.0
147,Dekar,BW,2020-04-05 19:33:13,-21.53,21.93,70.2,25,0,3.91,clear sky,0.0,0.0
148,Padang,ID,2020-04-05 19:33:13,-0.95,100.35,77.7,75,100,3.31,overcast clouds,0.0,0.0
149,Conde,BR,2020-04-05 19:33:13,-7.26,-34.91,87.8,70,20,12.75,few clouds,0.0,0.0
150,Isangel,VU,2020-04-05 19:33:13,-19.55,169.27,78.8,94,90,13.87,overcast clouds,0.0,0.0
151,Broken Hill,AU,2020-04-05 19:33:13,-31.95,141.43,51.8,76,0,6.44,clear sky,0.0,0.0
152,Robertsport,LR,2020-04-05 19:33:13,6.75,-11.37,82.36,81,20,5.99,light rain,0.62,0.0
153,Nikolskoye,RU,2020-04-05 19:32:12,59.7,30.79,30.2,74,3,4.47,clear sky,0.0,0.0
154,Gobabis,NA,2020-04-05 19:33:13,-22.45,18.97,71.6,68,83,2.24,broken clouds,0.0,0.0
155,Kaitangata,NZ,2020-04-05 19:33:14,-46.28,169.85,55.99,94,100,1.99,light rain,0.24,0.0
156,Cabo San Lucas,MX,2020-04-05 19:28:28,22.89,-109.91,86.0,30,75,5.82,broken clouds,0.0,0.0
157,Daru,PG,2020-04-05 19:33:14,-9.08,143.21,77.86,83,92,7.2,overcast clouds,0.0,0.0
158,Katsina,NG,2020-04-05 19:33:14,12.99,7.6,86.76,11,100,6.08,overcast clouds,0.0,0.0
159,Cururupu,BR,2020-04-05 19:33:14,-1.83,-44.87,79.48,90,100,6.96,moderate rain,3.47,0.0
160,Bredasdorp,ZA,2020-04-05 19:32:11,-34.53,20.04,60.8,82,80,10.29,broken clouds,0.0,0.0
161,Beringovskiy,RU,2020-04-05 19:33:14,63.05,179.32,4.41,85,76,11.97,broken clouds,0.0,0.0
162,Baisha,CN,2020-04-05 19:33:14,26.52,110.93,53.24,78,91,0.47,overcast clouds,0.0,0.0
163,Severobaykalsk,RU,2020-04-05 19:33:15,55.65,109.32,17.83,71,0,4.99,clear sky,0.0,0.0
164,Geraldton,AU,2020-04-05 19:33:15,-28.77,114.6,61.0,87,0,5.82,clear sky,0.0,0.0
165,Chokurdakh,RU,2020-04-05 19:29:25,70.63,147.92,8.26,95,99,11.27,light snow,0.0,0.35
166,Egvekinot,RU,2020-04-05 19:33:15,66.32,-179.17,2.43,85,100,7.56,overcast clouds,0.0,0.0
167,Ayorou,NE,2020-04-05 19:33:15,14.73,0.92,90.66,10,0,4.76,clear sky,0.0,0.0
168,Esperance,AU,2020-04-05 19:32:11,-33.87,121.9,57.2,76,75,10.29,broken clouds,0.0,0.0
169,Kiunga,PG,2020-04-05 19:33:16,-6.12,141.29,73.62,97,97,1.52,light rain,2.4,0.0
170,Setaka,JP,2020-04-05 19:33:16,33.15,130.47,46.0,80,0,3.36,clear sky,0.0,0.0
171,Peer,BE,2020-04-05 19:33:16,51.13,5.46,63.0,36,0,3.36,clear sky,0.0,0.0
172,Torbay,CA,2020-04-05 19:32:07,47.67,-52.73,30.99,74,75,12.75,broken clouds,0.0,0.0
173,Zhigansk,RU,2020-04-05 19:33:16,66.77,123.37,13.71,96,95,14.61,light snow,0.0,0.4
174,Kununurra,AU,2020-04-05 19:33:16,-15.77,128.73,77.0,88,40,1.12,scattered clouds,0.0,0.0
175,Itaituba,BR,2020-04-05 19:33:16,-4.28,-55.98,93.2,59,20,8.05,few clouds,0.0,0.0
176,Longyearbyen,SJ,2020-04-05 19:33:16,78.22,15.64,5.0,77,40,5.82,scattered clouds,0.0,0.0
177,Tanout,NE,2020-04-05 19:33:16,14.97,8.89,84.94,11,100,1.86,overcast clouds,0.0,0.0
178,Comillas,PH,2020-04-05 19:33:16,15.4,120.7,77.0,65,20,2.24,few clouds,0.0,0.0
179,Takoradi,GH,2020-04-05 19:33:17,4.88,-1.76,82.92,80,0,8.48,clear sky,0.0,0.0
180,Saint George,US,2020-04-05 19:30:59,37.1,-113.58,69.8,26,1,23.04,clear sky,0.0,0.0
181,Sovetskiy,RU,2020-04-05 19:33:17,61.36,63.58,30.65,96,100,7.99,overcast clouds,0.0,0.0
182,Valparaiso,CL,2020-04-05 19:33:17,-33.04,-71.63,64.4,63,0,8.05,clear sky,0.0,0.0
183,Sundby,DK,2020-04-05 19:30:26,54.86,11.79,52.0,70,0,8.05,clear sky,0.0,0.0
184,Korla,CN,2020-04-05 19:33:17,41.76,86.15,57.0,47,0,1.99,clear sky,0.0,0.0
185,Teya,RU,2020-04-05 19:33:17,60.38,92.63,21.22,92,91,4.25,overcast clouds,0.0,0.0
186,Kieta,PG,2020-04-05 19:33:17,-6.22,155.63,79.75,79,17,3.87,few clouds,0.0,0.0
187,Lavrentiya,RU,2020-04-05 19:33:17,65.58,-171.0,9.61,90,100,10.31,light snow,0.0,0.34
188,Cayenne,GF,2020-04-05 19:30:04,4.93,-52.33,87.8,62,75,16.11,broken clouds,0.0,0.0
189,Olinda,BR,2020-04-05 19:33:18,-8.01,-34.86,86.0,74,20,9.17,few clouds,0.0,0.0
190,Yashkul,RU,2020-04-05 19:33:18,46.17,45.34,47.66,48,52,11.14,broken clouds,0.0,0.0
191,Severo-Kurilsk,RU,2020-04-05 19:33:18,50.68,156.12,32.38,90,10,11.52,clear sky,0.0,0.0
192,Mae Hong Son,TH,2020-04-05 19:33:18,19.3,97.97,72.25,37,0,0.92,clear sky,0.0,0.0
193,Rocha,UY,2020-04-05 19:33:18,-34.48,-54.33,71.29,59,100,6.15,overcast clouds,0.0,0.0
194,Codrington,AU,2020-04-05 19:33:18,-38.27,141.97,51.93,72,26,7.87,scattered clouds,0.0,0.0
195,Saint-Georges,GD,2020-04-05 19:33:18,12.06,-61.75,86.0,70,20,14.99,few clouds,0.0,0.0
196,Mahibadhoo,MV,2020-04-05 19:33:18,3.78,72.97,84.51,69,86,7.52,overcast clouds,0.0,0.0
197,Aleksandrov Gay,RU,2020-04-05 19:33:18,50.15,48.57,40.93,68,29,6.33,scattered clouds,0.0,0.0
198,Constitucion,CL,2020-04-05 19:33:18,-35.33,-72.42,62.1,51,0,17.6,clear sky,0.0,0.0
199,Lata,PT,2020-04-05 19:33:19,40.16,-8.33,60.01,93,90,6.93,mist,0.0,0.0
200,Alta Floresta,BR,2020-04-05 19:33:19,-9.88,-56.09,91.4,63,75,1.12,broken clouds,0.0,0.0
201,Rafsanjan,IR,2020-04-05 19:33:19,30.41,55.99,61.03,21,0,3.58,clear sky,0.0,0.0
202,Les Trois-Ilets,MQ,2020-04-05 19:33:19,14.54,-61.04,86.0,70,75,10.29,broken clouds,0.0,0.0
203,Comrat,MD,2020-04-05 19:33:19,46.3,28.66,45.99,51,0,13.98,clear sky,0.0,0.0
204,Acapulco,MX,2020-04-05 19:31:14,16.86,-99.89,86.0,70,20,6.93,few clouds,0.0,0.0
205,Emerald,AU,2020-04-05 19:33:19,-23.53,148.17,64.4,52,0,9.17,clear sky,0.0,0.0
206,Chaoyang,CN,2020-04-05 19:33:19,41.57,120.46,37.44,70,0,1.97,clear sky,0.0,0.0
207,Diourbel,SN,2020-04-05 19:33:19,14.66,-16.39,102.2,22,0,4.7,clear sky,0.0,0.0
208,Mangrol,IN,2020-04-05 19:33:19,21.12,70.12,77.18,67,0,8.57,clear sky,0.0,0.0
209,Genhe,CN,2020-04-05 19:33:20,50.78,121.52,20.26,80,26,6.42,scattered clouds,0.0,0.0
210,Hithadhoo,MV,2020-04-05 19:33:20,-0.6,73.08,82.96,75,6,6.98,light rain,2.09,0.0
211,Pombas,CV,2020-04-05 19:33:20,17.15,-25.02,75.2,64,20,21.92,few clouds,0.0,0.0
212,Tautira,PF,2020-04-05 19:32:09,-17.73,-149.15,87.8,70,1,17.22,light rain,0.32,0.0
213,Tebingtinggi,ID,2020-04-05 19:33:20,3.33,99.16,78.8,88,40,6.93,scattered clouds,0.0,0.0
214,Srikakulam,IN,2020-04-05 19:33:20,18.3,83.9,80.29,77,24,6.38,few clouds,0.0,0.0
215,Te Karaka,NZ,2020-04-05 19:33:20,-38.47,177.87,56.03,70,87,1.05,overcast clouds,0.0,0.0
216,Saint-Philippe,RE,2020-04-05 19:33:20,-21.36,55.77,77.0,73,21,6.93,light rain,0.14,0.0
217,Lompoc,US,2020-04-05 19:33:20,34.64,-120.46,57.2,82,100,10.29,light rain,0.0,0.0
218,Sumbe,AO,2020-04-05 19:33:20,-11.21,13.84,77.56,86,16,5.17,few clouds,0.0,0.0
219,Kangaba,ML,2020-04-05 19:33:21,11.93,-8.42,93.92,16,5,1.21,clear sky,0.0,0.0
220,Upernavik,GL,2020-04-05 19:33:21,72.79,-56.15,12.54,81,92,2.42,overcast clouds,0.0,0.0
221,Atbasar,KZ,2020-04-05 19:33:21,51.8,68.33,35.37,88,99,7.47,overcast clouds,0.0,0.0
222,Ojuelos De Jalisco,MX,2020-04-05 19:33:21,21.87,-101.58,81.97,9,39,16.4,scattered clouds,0.0,0.0
223,Anqiu,CN,2020-04-05 19:33:21,36.43,119.19,46.51,51,100,8.72,overcast clouds,0.0,0.0
224,Vila Franca Do Campo,PT,2020-04-05 19:31:32,37.72,-25.43,60.8,87,40,5.82,scattered clouds,0.0,0.0
225,Andenes,NO,2020-04-05 19:33:21,69.31,16.12,24.01,73,74,11.41,broken clouds,0.0,0.0
226,Filingue,NE,2020-04-05 19:33:21,14.35,3.32,89.76,11,10,3.71,clear sky,0.0,0.0
227,Cape Coast,GH,2020-04-05 19:33:21,5.11,-1.25,82.87,82,0,9.46,clear sky,0.0,0.0
228,Maldonado,UY,2020-04-05 19:30:26,-34.67,-54.92,77.0,57,91,10.29,overcast clouds,0.0,0.0
229,Inongo,CD,2020-04-05 19:33:21,-1.95,18.27,73.45,89,44,1.45,moderate rain,4.58,0.0
230,Culaman,PH,2020-04-05 19:33:22,5.96,125.66,77.95,76,47,7.7,scattered clouds,0.0,0.0
231,Mar Del Plata,AR,2020-04-05 19:27:06,-38.0,-57.56,77.0,57,100,12.75,light rain,1.09,0.0
232,Potiskum,NG,2020-04-05 19:33:22,11.71,11.07,86.22,19,37,2.71,scattered clouds,0.0,0.0
233,Talnakh,RU,2020-04-05 19:33:22,69.49,88.4,32.0,96,40,17.9,light snow,0.0,0.0
234,Samarai,PG,2020-04-05 19:33:22,-10.62,150.67,77.7,77,88,11.54,overcast clouds,0.0,0.0
235,Guerrero Negro,MX,2020-04-05 19:33:22,27.98,-114.06,64.65,56,100,13.09,overcast clouds,0.0,0.0
236,Half Moon Bay,US,2020-04-05 19:33:22,37.46,-122.43,54.0,87,75,9.17,light rain,0.0,0.0
237,Santa Cruz Do Sul,BR,2020-04-05 19:33:22,-29.72,-52.43,74.07,49,0,2.66,clear sky,0.0,0.0
238,Harrisonburg,US,2020-04-05 19:33:06,38.45,-78.87,75.0,42,90,3.09,overcast clouds,0.0,0.0
239,Bambous Virieux,MU,2020-04-05 19:33:23,-20.34,57.76,78.8,78,75,10.29,broken clouds,0.0,0.0
240,Kirkland Lake,CA,2020-04-05 19:30:13,48.14,-80.04,42.8,41,1,8.05,clear sky,0.0,0.0
241,Budureasa,RO,2020-04-05 19:33:23,46.67,22.5,52.0,37,0,5.82,clear sky,0.0,0.0
242,Turka,UA,2020-04-05 19:33:23,49.15,23.03,45.0,39,0,4.21,clear sky,0.0,0.0
243,Talwandi Bhai,IN,2020-04-05 19:33:23,30.85,74.93,69.3,37,0,5.59,clear sky,0.0,0.0
244,North Bend,US,2020-04-05 19:31:32,43.41,-124.22,57.99,76,1,9.17,clear sky,0.0,0.0
245,Bereda,ES,2020-04-05 19:33:23,43.27,-7.54,59.0,82,75,2.24,broken clouds,0.0,0.0
246,Adrar,MR,2020-04-05 19:33:24,20.5,-10.07,82.47,15,0,10.54,clear sky,0.0,0.0
247,Yongan,CN,2020-04-05 19:33:24,39.7,113.69,45.52,37,39,3.49,scattered clouds,0.0,0.0
248,Lasa,IT,2020-04-05 19:33:24,46.62,10.7,62.6,25,3,5.82,clear sky,0.0,0.0
249,Tecoanapa,MX,2020-04-05 19:33:24,16.52,-98.75,87.12,51,2,12.1,clear sky,0.0,0.0
250,Wabana,CA,2020-04-05 19:33:24,47.63,-52.95,30.99,74,75,12.75,broken clouds,0.0,0.0
251,Hamilton,US,2020-04-05 19:33:24,39.18,-84.53,60.01,76,90,8.05,light rain,0.0,0.0
252,Hasaki,JP,2020-04-05 19:33:24,35.73,140.83,41.0,86,75,3.36,broken clouds,0.0,0.0
253,Durant,US,2020-04-05 19:29:30,33.99,-96.37,64.0,67,90,5.82,overcast clouds,0.0,0.0
254,Cherskiy,RU,2020-04-05 19:33:25,68.75,161.3,-2.52,88,0,12.37,clear sky,0.0,0.0
255,General Pico,AR,2020-04-05 19:31:53,-35.66,-63.76,78.67,36,12,4.59,few clouds,0.0,0.0
256,Te Anau,NZ,2020-04-05 19:33:25,-45.42,167.72,59.29,71,100,5.55,light rain,0.61,0.0
257,Porbandar,IN,2020-04-05 19:33:25,21.64,69.61,76.95,71,0,7.29,clear sky,0.0,0.0
258,Mahajanga,MG,2020-04-05 19:33:25,-15.72,46.32,78.8,83,20,3.36,few clouds,0.0,0.0
259,Avera,US,2020-04-05 19:33:25,33.19,-82.53,80.01,44,1,9.17,clear sky,0.0,0.0
260,Butaritari,KI,2020-04-05 19:32:05,3.07,172.79,82.56,78,49,11.16,scattered clouds,0.0,0.0
261,Nerekhta,RU,2020-04-05 19:33:25,57.46,40.57,30.2,68,62,8.95,broken clouds,0.0,0.0
262,Katsuura,JP,2020-04-05 19:33:26,35.13,140.3,48.2,45,75,8.05,broken clouds,0.0,0.0
263,Pisco,PE,2020-04-05 19:33:26,-13.7,-76.22,73.99,30,0,10.29,clear sky,0.0,0.0
264,Ranong,TH,2020-04-05 19:33:26,9.97,98.63,78.35,81,100,4.65,overcast clouds,0.0,0.0
265,Hofn,IS,2020-04-05 19:32:12,64.25,-15.21,45.64,85,100,20.07,heavy intensity rain,12.32,0.0
266,Bangassou,CF,2020-04-05 19:33:26,4.74,22.82,73.0,75,100,1.48,light rain,0.18,0.0
267,Nemuro,JP,2020-04-05 19:33:26,43.32,145.57,35.37,86,0,14.76,clear sky,0.0,0.0
268,Tiksi,RU,2020-04-05 19:32:07,71.69,128.87,16.02,92,94,21.47,overcast clouds,0.0,0.0
269,Dunedin,NZ,2020-04-05 19:32:04,-45.87,170.5,57.99,94,100,3.0,overcast clouds,0.0,0.0
270,Vostok,RU,2020-04-05 19:33:26,46.49,135.88,25.25,90,95,3.2,light snow,0.0,0.55
271,Aykhal,RU,2020-04-05 19:33:26,66.0,111.5,30.2,68,53,8.95,broken clouds,0.0,0.0
272,Sainte-Thecle,CA,2020-04-05 19:33:26,46.82,-72.5,41.0,100,90,5.82,light rain,0.0,0.0
273,Saint-Pierre,RE,2020-04-05 19:33:27,-21.34,55.48,77.0,73,27,6.93,scattered clouds,0.0,0.0
274,Mazagao,BR,2020-04-05 19:33:27,-0.12,-51.29,89.6,70,40,11.41,shower rain,0.0,0.0
275,Uribia,CO,2020-04-05 19:33:27,11.71,-72.27,89.02,56,26,20.2,scattered clouds,0.0,0.0
276,Sulzbach-Rosenberg,DE,2020-04-05 19:33:27,49.5,11.75,55.4,37,1,5.82,clear sky,0.0,0.0
277,Fribourg,CH,2020-04-05 19:33:27,46.8,7.15,55.4,43,0,2.24,clear sky,0.0,0.0
278,Alyangula,AU,2020-04-05 19:33:27,-13.85,136.42,75.2,100,35,8.14,light rain,0.8,0.0
279,Fairbanks,US,2020-04-05 19:30:36,64.84,-147.72,36.0,80,40,13.87,light rain,0.0,0.0
280,Zaysan,KZ,2020-04-05 19:33:27,47.47,84.87,46.42,40,0,2.44,clear sky,0.0,0.0
281,Luau,AO,2020-04-05 19:33:27,-10.71,22.22,66.72,69,100,3.13,moderate rain,4.59,0.0
282,Hami,CN,2020-04-05 19:33:28,42.8,93.45,52.09,26,88,0.87,overcast clouds,0.0,0.0
283,Novyy Starodub,UA,2020-04-05 19:33:28,48.52,33.17,41.0,27,0,11.18,clear sky,0.0,0.0
284,Prata,BR,2020-04-05 19:33:28,-19.31,-48.92,77.11,66,25,5.08,scattered clouds,0.0,0.0
285,Kuusamo,FI,2020-04-05 19:33:28,65.97,29.18,15.8,56,0,2.24,clear sky,0.0,0.0
286,Hobyo,SO,2020-04-05 19:32:12,5.35,48.53,82.31,71,100,15.35,overcast clouds,0.0,0.0
287,Mitsamiouli,KM,2020-04-05 19:30:54,-11.38,43.28,83.32,68,71,2.21,light rain,0.13,0.0
288,Riberalta,BO,2020-04-05 19:33:28,-10.98,-66.1,84.78,78,90,1.39,light rain,2.15,0.0
289,Bar Harbor,US,2020-04-05 19:33:29,44.39,-68.2,51.8,65,90,13.87,overcast clouds,0.0,0.0
290,Aras,ES,2020-04-05 19:33:29,42.56,-2.36,60.8,55,20,11.41,few clouds,0.0,0.0
291,Livadiya,RU,2020-04-05 19:33:29,42.87,132.68,34.39,81,0,10.0,clear sky,0.0,0.0
292,Bengkulu,ID,2020-04-05 19:32:06,-3.8,102.27,75.58,89,100,6.89,moderate rain,10.01,0.0
293,Tezu,IN,2020-04-05 19:33:29,27.92,96.17,67.86,29,76,3.04,broken clouds,0.0,0.0
294,Rio Verde De Mato Grosso,BR,2020-04-05 19:33:29,-18.92,-54.84,84.13,65,23,1.74,light rain,0.63,0.0
295,Harper,LR,2020-04-05 19:30:40,4.38,-7.72,83.25,82,48,8.12,scattered clouds,0.0,0.0
296,Chicama,PE,2020-04-05 19:33:29,-7.84,-79.15,71.6,78,50,10.29,haze,0.0,0.0
297,Souillac,MU,2020-04-05 19:33:29,-20.52,57.52,78.8,78,75,10.29,broken clouds,0.0,0.0
298,Ballarat,AU,2020-04-05 19:33:30,-37.57,143.85,48.99,91,16,2.1,few clouds,0.0,0.0
299,Haines Junction,CA,2020-04-05 19:33:30,60.75,-137.51,29.52,74,85,8.59,overcast clouds,0.0,0.0
300,Lincoln,US,2020-04-05 19:33:30,40.8,-96.67,59.0,41,1,10.29,clear sky,0.0,0.0
301,Tambura,SS,2020-04-05 19:33:30,5.6,27.47,71.11,70,100,5.06,overcast clouds,0.0,0.0
302,Layou,VC,2020-04-05 19:33:30,13.2,-61.27,87.8,70,40,5.82,scattered clouds,0.0,0.0
303,Clyde River,CA,2020-04-05 19:32:05,70.47,-68.59,12.2,66,75,17.22,broken clouds,0.0,0.0
304,Kavieng,PG,2020-04-05 19:32:04,-2.57,150.8,83.01,74,44,7.47,moderate rain,3.67,0.0
305,Tuatapere,NZ,2020-04-05 19:33:30,-46.13,167.68,60.01,81,100,5.01,overcast clouds,0.0,0.0
306,Viedma,AR,2020-04-05 19:30:42,-40.81,-63.0,68.13,24,30,19.44,scattered clouds,0.0,0.0
307,Crotone,IT,2020-04-05 19:33:30,39.09,17.12,55.33,68,85,15.93,overcast clouds,0.0,0.0
308,Seoul,KR,2020-04-05 19:33:29,37.57,126.98,37.4,74,1,0.78,clear sky,0.0,0.0
309,Udachnyy,RU,2020-04-05 19:33:31,66.42,112.4,30.2,68,93,8.95,overcast clouds,0.0,0.0
310,Mount Pleasant,US,2020-04-05 19:33:31,32.79,-79.86,79.0,56,1,9.89,clear sky,0.0,0.0
311,Sibolga,ID,2020-04-05 19:33:31,1.74,98.78,77.47,76,95,2.21,overcast clouds,0.0,0.0
312,Mitu,CO,2020-04-05 19:30:01,1.2,-70.17,86.61,64,64,1.9,light rain,1.06,0.0
313,Najran,SA,2020-04-05 19:33:31,17.49,44.13,80.6,32,5,8.05,clear sky,0.0,0.0
314,Zhanaozen,KZ,2020-04-05 19:33:31,43.3,52.8,55.09,48,80,3.58,broken clouds,0.0,0.0
315,Bulawayo,ZW,2020-04-05 19:33:22,-20.15,28.58,63.77,45,33,2.06,scattered clouds,0.0,0.0
316,Zabol,AF,2020-04-05 19:33:32,32.25,67.25,52.32,25,11,2.28,few clouds,0.0,0.0
317,Margate,GB,2020-04-05 19:32:39,51.38,1.39,63.0,47,0,9.17,clear sky,0.0,0.0
318,Grand Gaube,MU,2020-04-05 19:33:32,-20.01,57.66,78.8,78,75,10.29,broken clouds,0.0,0.0
319,San Pedro De Macoris,DO,2020-04-05 19:33:32,18.46,-69.3,89.6,52,40,8.05,scattered clouds,0.0,0.0
320,Vardo,NO,2020-04-05 19:32:05,70.37,31.11,19.4,61,90,16.11,light snow,0.0,0.54
321,Palatka,US,2020-04-05 19:33:32,29.65,-81.64,71.6,82,90,6.93,overcast clouds,0.0,0.0
322,Sinnamary,GF,2020-04-05 19:33:32,5.38,-52.95,81.32,78,91,13.44,overcast clouds,0.0,0.0
323,Denia,ES,2020-04-05 19:33:08,38.84,0.11,59.0,74,22,5.08,few clouds,0.0,0.0
324,Buchanan,LR,2020-04-05 19:33:33,5.88,-10.05,81.48,85,31,6.38,scattered clouds,0.0,0.0
325,Booue,GA,2020-04-05 19:33:33,-0.09,11.94,76.57,83,30,1.63,light rain,0.81,0.0
326,Jalu,LY,2020-04-05 19:33:33,29.03,21.55,63.46,50,1,11.63,clear sky,0.0,0.0
327,Nha Trang,VN,2020-04-05 19:31:26,12.25,109.18,76.21,83,48,5.75,light rain,0.28,0.0
328,Mangalia,RO,2020-04-05 19:33:33,43.8,28.58,50.0,46,20,11.41,few clouds,0.0,0.0
329,Goderich,CA,2020-04-05 19:33:33,43.75,-81.72,46.0,77,59,12.19,broken clouds,0.0,0.0
330,Teknaf,BD,2020-04-05 19:33:33,20.86,92.31,75.87,92,27,2.17,light rain,0.15,0.0
331,Salinopolis,BR,2020-04-05 19:29:20,-0.61,-47.36,83.44,79,99,13.29,light rain,2.62,0.0
332,Kyra,RU,2020-04-05 19:33:33,49.58,111.98,26.71,62,100,9.66,overcast clouds,0.0,0.0
333,Cap Malheureux,MU,2020-04-05 19:33:34,-19.98,57.61,78.8,78,75,10.29,broken clouds,0.0,0.0
334,Boueni,YT,2020-04-05 19:33:34,-12.9,45.08,80.6,83,28,3.36,scattered clouds,0.0,0.0
335,College,US,2020-04-05 19:33:34,64.86,-147.8,37.4,80,90,10.29,overcast clouds,0.0,0.0
336,Rawson,AR,2020-04-05 19:33:34,-43.3,-65.1,58.98,34,93,31.34,overcast clouds,0.0,0.0
337,Kalaiya,NP,2020-04-05 19:33:34,27.03,85.0,71.64,20,0,3.58,clear sky,0.0,0.0
338,Port-Gentil,GA,2020-04-05 19:33:34,-0.72,8.78,82.08,83,11,12.64,few clouds,0.0,0.0
339,Praya,CV,2020-04-05 19:32:46,14.92,-23.51,75.2,64,20,23.04,few clouds,0.0,0.0
340,Vieste,IT,2020-04-05 19:33:34,41.88,16.18,57.99,87,40,9.17,scattered clouds,0.0,0.0
341,Oriximina,BR,2020-04-05 19:33:34,-1.77,-55.87,85.21,76,77,3.78,light rain,0.37,0.0
342,Zhangye,CN,2020-04-05 19:33:34,38.93,100.45,45.79,29,65,2.46,broken clouds,0.0,0.0
343,Riyadh,SA,2020-04-05 19:30:09,24.69,46.72,80.6,18,75,9.17,broken clouds,0.0,0.0
344,Aklavik,CA,2020-04-05 19:33:35,68.22,-135.01,23.0,67,75,12.75,broken clouds,0.0,0.0
345,Christchurch,NZ,2020-04-05 19:33:35,-43.53,172.63,57.99,100,100,12.75,overcast clouds,0.0,0.0
346,Teshie,GH,2020-04-05 19:33:35,5.58,-0.11,84.2,74,6,9.17,clear sky,0.0,0.0
347,Abu Dhabi,AE,2020-04-05 19:30:09,24.47,54.37,80.6,51,0,2.24,clear sky,0.0,0.0
348,Rio Grande,BR,2020-04-05 19:33:35,-32.03,-52.1,80.6,44,11,13.87,few clouds,0.0,0.0
349,Synya,RU,2020-04-05 19:33:35,65.37,58.04,18.93,97,99,3.85,overcast clouds,0.0,0.0
350,Kapoeta,SS,2020-04-05 19:33:35,4.77,33.59,85.8,34,96,11.99,overcast clouds,0.0,0.0
351,Karangasem,ID,2020-04-05 19:33:35,-8.45,115.62,82.4,94,20,2.24,few clouds,0.0,0.0
352,Khash,IR,2020-04-05 19:33:35,28.22,61.22,64.92,24,0,6.06,clear sky,0.0,0.0
353,Mzimba,MW,2020-04-05 19:33:36,-11.9,33.6,62.1,60,5,3.67,clear sky,0.0,0.0
354,Corowa,AU,2020-04-05 19:33:36,-36.03,146.38,55.0,87,90,6.93,overcast clouds,0.0,0.0
355,Bireun,ID,2020-04-05 19:33:36,5.2,96.7,79.63,74,88,3.11,moderate rain,3.14,0.0
356,Tarakan,ID,2020-04-05 19:33:36,3.3,117.63,79.39,81,31,1.23,light rain,0.27,0.0
357,Cumberland,US,2020-04-05 19:33:36,35.05,-78.87,75.0,40,1,9.17,clear sky,0.0,0.0
358,Hualmay,PE,2020-04-05 19:33:36,-11.1,-77.61,77.76,63,0,8.66,clear sky,0.0,0.0
359,Danjiangkou,CN,2020-04-05 19:33:36,32.54,111.51,56.12,70,100,3.69,overcast clouds,0.0,0.0
360,Mount Airy,US,2020-04-05 19:33:36,36.5,-80.61,73.99,49,1,5.82,clear sky,0.0,0.0
361,Raga,SS,2020-04-05 19:33:36,8.46,25.68,77.36,42,80,6.91,broken clouds,0.0,0.0
362,Matadi,CD,2020-04-05 19:33:37,-5.82,13.45,77.22,87,85,3.13,overcast clouds,0.0,0.0
363,Mount Isa,AU,2020-04-05 19:33:37,-20.73,139.5,69.8,28,72,10.29,broken clouds,0.0,0.0
364,Ati,TD,2020-04-05 19:33:37,13.22,18.34,90.0,23,9,5.06,clear sky,0.0,0.0
365,Yoichi,JP,2020-04-05 19:33:37,43.2,140.77,32.0,85,95,8.72,light snow,0.0,0.69
366,Weatherford,US,2020-04-05 19:32:24,32.76,-97.8,63.0,77,90,9.17,overcast clouds,0.0,0.0
367,Raudeberg,NO,2020-04-05 19:33:37,61.99,5.14,51.01,53,100,20.8,overcast clouds,0.0,0.0
368,Nuevo Progreso,MX,2020-04-05 19:33:37,23.17,-97.95,81.0,67,87,1.99,overcast clouds,0.0,0.0
369,Gardner,US,2020-04-05 19:33:37,42.58,-72.0,57.99,58,90,9.17,overcast clouds,0.0,0.0
370,Ilulissat,GL,2020-04-05 19:33:37,69.22,-51.1,14.0,43,0,33.33,light shower snow,0.0,0.0
371,Blagoveshchensk,RU,2020-04-05 19:33:37,50.27,127.53,33.8,74,40,13.42,scattered clouds,0.0,0.0
372,Fossombrone,IT,2020-04-05 19:33:38,43.69,12.81,55.99,46,33,4.7,scattered clouds,0.0,0.0
373,Fallon,US,2020-04-05 19:33:38,39.47,-118.78,60.8,26,90,13.87,overcast clouds,0.0,0.0
374,San Lorenzo,PY,2020-04-05 19:33:38,-25.33,-57.53,96.8,34,20,10.29,few clouds,0.0,0.0
375,Vostochnyy,RU,2020-04-05 19:33:38,55.82,37.87,36.0,68,42,6.71,scattered clouds,0.0,0.0
376,Corinto,GR,2020-04-05 19:32:05,37.94,22.96,54.0,87,90,17.22,light rain,0.0,0.0
377,Rapid Valley,US,2020-04-05 19:33:38,44.06,-103.15,60.01,29,1,10.29,clear sky,0.0,0.0
378,Osinovo,RU,2020-04-05 19:33:38,55.88,48.88,32.0,81,100,4.47,light snow,0.0,0.16
379,Kota Bahru,MY,2020-04-05 19:33:38,6.13,102.24,77.0,94,20,2.24,few clouds,0.0,0.0
380,Cociuba Mare,RO,2020-04-05 19:33:39,46.73,22.0,55.0,37,19,5.82,few clouds,0.0,0.0
381,Tete,MZ,2020-04-05 19:33:39,-16.16,33.59,78.8,57,0,4.7,clear sky,0.0,0.0
382,Den Helder,NL,2020-04-05 19:33:39,52.96,4.76,61.0,41,0,8.05,clear sky,0.0,0.0
383,Jacareacanga,BR,2020-04-05 19:33:39,-6.22,-57.75,85.05,74,85,3.56,light rain,0.98,0.0
384,La Ronge,CA,2020-04-05 19:33:39,55.1,-105.28,24.8,45,40,10.29,scattered clouds,0.0,0.0
385,Lagoa,PT,2020-04-05 19:33:39,39.05,-27.98,57.02,85,100,17.58,light rain,0.21,0.0
386,Kralendijk,BQ,2020-04-05 19:31:33,12.15,-68.27,86.0,66,75,21.92,broken clouds,0.0,0.0
387,Portland,US,2020-04-05 19:29:40,45.52,-122.68,57.99,54,75,3.36,broken clouds,0.0,0.0
388,Hambantota,LK,2020-04-05 19:33:39,6.12,81.12,78.8,94,20,1.12,few clouds,0.0,0.0
389,Gornoye Loo,RU,2020-04-05 19:33:39,43.71,39.6,51.8,76,100,2.24,overcast clouds,0.0,0.0
390,Korem,ET,2020-04-05 19:33:39,12.51,39.52,58.84,30,27,6.42,scattered clouds,0.0,0.0
391,Sarangani,PH,2020-04-05 19:33:40,5.4,125.46,82.42,77,12,19.57,few clouds,0.0,0.0
392,San Rafael,AR,2020-04-05 19:33:40,-34.62,-68.33,77.9,23,1,9.06,clear sky,0.0,0.0
393,Batagay-Alyta,RU,2020-04-05 19:33:40,67.8,130.41,8.62,83,100,5.77,overcast clouds,0.0,0.0
394,Wufeng,CN,2020-04-05 19:33:40,27.45,104.83,39.87,55,100,3.74,light rain,1.06,0.0
395,Tooele,US,2020-04-05 19:33:29,40.53,-112.3,62.6,57,90,9.17,light rain,0.0,0.0
396,Poum,NC,2020-04-05 19:33:40,-20.23,164.02,79.83,77,89,20.33,overcast clouds,0.0,0.0
397,Magadan,RU,2020-04-05 19:30:29,59.57,150.8,14.49,95,100,5.95,light snow,0.0,0.15
398,Kidal,ML,2020-04-05 19:33:40,18.44,1.41,87.84,10,0,8.39,clear sky,0.0,0.0
399,Hanting,CN,2020-04-05 19:33:40,36.77,119.21,47.07,51,100,7.87,overcast clouds,0.0,0.0
400,Thompson,CA,2020-04-05 19:33:40,55.74,-97.86,21.2,62,40,6.93,scattered clouds,0.0,0.0
401,Tevaitoa,PF,2020-04-05 19:33:41,-16.78,-151.5,84.33,72,0,9.53,clear sky,0.0,0.0
402,Serenje,ZM,2020-04-05 19:33:41,-13.23,30.24,60.37,62,2,2.1,clear sky,0.0,0.0
403,Gilgit,PK,2020-04-05 19:33:41,35.92,74.31,50.13,24,100,0.92,overcast clouds,0.0,0.0
404,Moree,AU,2020-04-05 19:33:41,-29.47,149.85,53.6,81,0,5.82,clear sky,0.0,0.0
405,Atakpame,TG,2020-04-05 19:33:41,7.53,1.13,81.79,59,29,6.96,scattered clouds,0.0,0.0
406,Beaupre,CA,2020-04-05 19:33:41,47.04,-70.9,44.6,65,90,4.7,light rain,0.0,0.0
407,Reconquista,AR,2020-04-05 19:33:41,-29.15,-59.65,76.78,49,94,4.29,overcast clouds,0.0,0.0
408,Pochutla,MX,2020-04-05 19:33:42,15.74,-96.47,90.0,52,40,8.05,scattered clouds,0.0,0.0
409,Vila Velha,BR,2020-04-05 19:24:07,-20.33,-40.29,78.01,78,90,10.29,overcast clouds,0.0,0.0
410,Alofi,NU,2020-04-05 19:32:05,-19.06,-169.92,77.0,83,99,5.82,moderate rain,4.39,0.0
411,Nanortalik,GL,2020-04-05 19:33:42,60.14,-45.24,24.46,77,79,2.55,broken clouds,0.0,0.0
412,Brokopondo,SR,2020-04-05 19:33:42,4.75,-55.17,84.04,70,100,3.71,light rain,0.12,0.0
413,Granadilla De Abona,ES,2020-04-05 19:33:42,28.12,-16.58,72.0,73,20,4.7,few clouds,0.0,0.0
414,Murray,US,2020-04-05 19:33:42,40.67,-111.89,62.6,51,90,18.34,overcast clouds,0.0,0.0
415,Awbari,LY,2020-04-05 19:33:42,26.59,12.78,67.23,24,10,9.37,clear sky,0.0,0.0
416,Inirida,CO,2020-04-05 19:33:42,3.87,-67.92,82.96,87,97,1.63,moderate rain,4.37,0.0
417,Paysandu,UY,2020-04-05 19:33:42,-32.32,-58.08,82.99,43,99,4.83,overcast clouds,0.0,0.0
418,Carutapera,BR,2020-04-05 19:33:43,-1.2,-46.02,81.37,84,98,10.4,light rain,2.52,0.0
419,Clovis,US,2020-04-05 19:29:21,36.83,-119.7,64.4,71,90,9.17,light rain,0.0,0.0
420,Mantua,IT,2020-04-05 19:33:43,45.17,10.78,59.0,40,0,4.7,clear sky,0.0,0.0
421,Panaba,MX,2020-04-05 19:33:43,21.28,-88.27,95.13,36,0,8.21,clear sky,0.0,0.0
422,Marzuq,YE,2020-04-05 19:33:43,14.4,46.47,74.43,31,0,3.91,clear sky,0.0,0.0
423,Usinsk,RU,2020-04-05 19:31:53,65.99,57.53,15.78,96,63,7.63,broken clouds,0.0,0.0
424,Palmer,US,2020-04-05 19:33:43,42.16,-72.33,60.01,58,90,5.82,overcast clouds,0.0,0.0
425,Kamenskiy,RU,2020-04-05 19:33:43,50.89,45.49,36.68,71,29,6.51,scattered clouds,0.0,0.0
426,Auki,SB,2020-04-05 19:33:43,-8.77,160.7,82.31,81,92,13.29,light rain,1.0,0.0
427,Tubuala,PA,2020-04-05 19:33:44,9.52,-79.03,93.2,46,40,13.87,scattered clouds,0.0,0.0
428,Nouakchott,MR,2020-04-05 19:33:44,18.09,-15.98,75.2,64,0,18.34,clear sky,0.0,0.0
429,Port Pirie,AU,2020-04-05 19:33:44,-33.18,138.02,53.6,81,53,5.82,light rain,0.27,0.0
430,Parabel,RU,2020-04-05 19:33:44,58.7,81.48,29.43,96,91,12.68,overcast clouds,0.0,0.0
431,Azua,DO,2020-04-05 19:33:44,18.45,-70.73,86.0,62,20,20.8,few clouds,0.0,0.0
432,Bonnyville,CA,2020-04-05 19:33:44,54.27,-110.73,21.2,67,90,6.93,overcast clouds,0.0,0.0
433,Hervey Bay,AU,2020-04-05 19:33:44,-25.3,152.85,68.0,88,5,6.93,clear sky,0.0,0.0
434,Wheeling,US,2020-04-05 19:31:35,42.14,-87.93,55.0,39,1,9.17,clear sky,0.0,0.0
435,Buin,CL,2020-04-05 19:33:45,-33.73,-70.75,78.8,29,0,4.7,clear sky,0.0,0.0
436,Toora-Khem,RU,2020-04-05 19:33:45,52.47,96.11,28.17,72,93,1.63,light snow,0.0,0.23
437,Fredericton,CA,2020-04-05 19:31:13,45.95,-66.67,53.6,40,90,10.29,overcast clouds,0.0,0.0
438,Mayahi,NE,2020-04-05 19:33:45,13.96,7.67,90.03,10,96,6.4,overcast clouds,0.0,0.0
439,Kalianget,ID,2020-04-05 19:33:45,-7.05,113.93,80.11,79,80,3.22,broken clouds,0.0,0.0
440,Shenjiamen,CN,2020-04-05 19:33:45,29.96,122.3,50.43,62,66,8.23,broken clouds,0.0,0.0
441,Kamenka,RU,2020-04-05 19:32:10,51.32,42.77,35.01,86,97,8.99,light snow,0.0,0.67
442,Novyy Urengoy,RU,2020-04-05 19:33:45,66.08,76.63,32.14,97,100,4.05,snow,0.0,2.25
443,Ahipara,NZ,2020-04-05 19:33:45,-35.17,173.17,63.68,65,100,12.08,overcast clouds,0.0,0.0
444,Taylorville,US,2020-04-05 19:33:45,39.55,-89.29,60.01,54,90,6.93,overcast clouds,0.0,0.0
445,Keti Bandar,PK,2020-04-05 19:33:45,24.14,67.45,76.44,78,2,11.5,clear sky,0.0,0.0
446,Vorukh,TJ,2020-04-05 19:33:46,39.85,70.58,48.2,38,83,2.89,broken clouds,0.0,0.0
447,Saldanha,ZA,2020-04-05 19:33:46,-33.01,17.94,62.6,88,97,8.05,light rain,0.16,0.0
448,Jiuquan,CN,2020-04-05 19:33:46,39.74,98.52,45.73,26,16,5.08,few clouds,0.0,0.0
449,Makakilo City,US,2020-04-05 19:33:46,21.35,-158.09,78.8,78,1,4.7,clear sky,0.0,0.0
450,Oranjemund,NA,2020-04-05 19:33:46,-28.55,16.43,57.07,90,16,2.01,few clouds,0.0,0.0
451,Byron Bay,AU,2020-04-05 19:33:46,-28.65,153.62,63.0,93,8,6.06,clear sky,0.0,0.0
452,Dudinka,RU,2020-04-05 19:33:46,69.41,86.18,32.0,98,40,17.9,light snow,0.0,0.0
453,Bulembu,SZ,2020-04-05 19:33:46,-25.97,31.13,69.8,68,0,5.82,clear sky,0.0,0.0
454,Jieshi,CN,2020-04-05 19:33:46,22.81,115.83,62.01,84,84,11.65,broken clouds,0.0,0.0
455,Lucea,JM,2020-04-05 19:33:47,18.45,-78.17,86.0,70,20,21.92,few clouds,0.0,0.0
456,Taloda,IN,2020-04-05 19:33:47,21.57,74.22,78.44,33,0,10.09,clear sky,0.0,0.0
457,Balkhash,KZ,2020-04-05 19:33:47,46.84,74.98,47.21,59,100,8.81,overcast clouds,0.0,0.0
458,Fort Nelson,CA,2020-04-05 19:33:47,58.81,-122.7,28.4,50,20,9.17,few clouds,0.0,0.0
459,Okha,RU,2020-04-05 19:33:47,53.57,142.95,24.49,95,2,8.88,clear sky,0.0,0.0
460,Lorengau,PG,2020-04-05 19:33:47,-2.02,147.27,81.75,79,68,9.37,moderate rain,3.75,0.0
461,Los Andes,CL,2020-04-05 19:32:57,-32.83,-70.6,78.8,27,0,9.17,clear sky,0.0,0.0
462,Quatre Cocos,MU,2020-04-05 19:33:47,-20.21,57.76,78.8,78,75,10.29,broken clouds,0.0,0.0
463,Bambanglipuro,ID,2020-04-05 19:33:47,-7.95,110.28,78.73,84,74,3.91,light rain,1.02,0.0
464,Srandakan,ID,2020-04-05 19:33:47,-7.94,110.25,78.96,84,75,3.94,light rain,1.1,0.0
465,San Isidro,PE,2020-04-05 19:33:47,-12.12,-77.05,78.8,61,0,12.75,clear sky,0.0,0.0
466,Polson,US,2020-04-05 19:33:47,47.69,-114.16,39.0,74,90,3.36,overcast clouds,0.0,0.0
467,Anage,BR,2020-04-05 19:33:48,-14.61,-41.14,78.4,70,68,8.77,moderate rain,3.12,0.0
468,Ruteng,ID,2020-04-05 19:33:48,-8.61,120.47,64.56,75,75,2.21,broken clouds,0.0,0.0
469,Brewster,US,2020-04-05 19:33:48,41.4,-73.62,66.0,55,20,5.82,few clouds,0.0,0.0
470,Asau,RO,2020-04-05 19:32:12,46.43,26.4,43.0,38,0,6.93,clear sky,0.0,0.0
471,Bonga,ET,2020-04-05 19:32:17,7.28,36.23,62.26,55,83,1.41,light rain,0.24,0.0
472,Meadow Lake,US,2020-04-05 19:33:48,34.8,-106.54,72.0,14,1,16.46,clear sky,0.0,0.0
473,Biskamzha,RU,2020-04-05 19:33:48,53.45,89.53,27.0,85,0,3.11,clear sky,0.0,0.0
474,Hobbs,US,2020-04-05 19:30:00,32.7,-103.14,68.0,55,5,4.7,clear sky,0.0,0.0
475,Praia Da Vitoria,PT,2020-04-05 19:32:43,38.73,-27.07,55.4,87,75,16.2,light rain,0.0,0.0
476,Namibe,AO,2020-04-05 19:33:48,-15.2,12.15,72.34,76,6,5.01,clear sky,0.0,0.0
477,Mao,ES,2020-04-05 19:33:49,39.89,4.27,57.2,62,89,4.7,overcast clouds,0.0,0.0
478,Farsund,NO,2020-04-05 19:33:49,58.09,6.8,48.0,72,78,15.55,broken clouds,0.0,0.0
479,Susanville,US,2020-04-05 19:32:50,40.42,-120.65,42.8,87,90,11.41,overcast clouds,0.0,0.0
480,Porto Novo,BJ,2020-04-05 19:33:49,6.5,2.6,83.48,76,86,9.4,overcast clouds,0.0,0.0
481,Marakkanam,IN,2020-04-05 19:33:49,12.2,79.95,81.14,85,35,7.05,scattered clouds,0.0,0.0
482,Chapais,CA,2020-04-05 19:33:49,49.78,-74.85,33.8,69,90,14.99,overcast clouds,0.0,0.0
483,Alihe,CN,2020-04-05 19:33:49,50.57,123.72,26.04,82,23,8.37,few clouds,0.0,0.0
484,Ninohe,JP,2020-04-05 19:33:49,40.27,141.31,35.6,80,75,10.29,broken clouds,0.0,0.0
485,Road Town,VG,2020-04-05 19:30:20,18.42,-64.62,86.0,58,20,5.82,few clouds,0.0,0.0
486,Churapcha,RU,2020-04-05 19:33:49,62.0,132.43,8.06,94,100,5.86,light snow,0.0,0.12
487,Srednekolymsk,RU,2020-04-05 19:33:50,67.45,153.68,6.57,90,100,5.59,overcast clouds,0.0,0.0
488,Edd,ER,2020-04-05 19:33:50,13.93,41.69,88.54,37,0,16.84,clear sky,0.0,0.0
489,Ziway,ET,2020-04-05 19:33:50,7.93,38.72,67.23,29,1,2.8,clear sky,0.0,0.0
490,Pampa,US,2020-04-05 19:33:50,35.54,-100.96,72.0,63,1,20.8,clear sky,0.0,0.0
491,Dickinson,US,2020-04-05 19:32:02,29.46,-95.05,75.2,73,75,11.41,broken clouds,0.0,0.0
492,Oistins,BB,2020-04-05 19:33:50,13.07,-59.53,84.2,66,75,14.99,broken clouds,0.0,0.0
493,Kiama,AU,2020-04-05 19:33:50,-34.68,150.87,60.8,63,0,11.41,clear sky,0.0,0.0
494,Thaba Nchu,ZA,2020-04-05 19:33:50,-29.21,26.84,60.8,77,69,3.36,broken clouds,0.0,0.0
495,Sarkand,KZ,2020-04-05 19:33:50,45.41,79.92,52.14,32,46,6.8,scattered clouds,0.0,0.0
496,Ippy,CF,2020-04-05 19:33:51,6.27,21.22,72.46,70,100,3.6,moderate rain,3.21,0.0
497,Port Hedland,AU,2020-04-05 19:33:51,-20.32,118.57,77.0,88,71,6.93,broken clouds,0.0,0.0
498,Buala,SB,2020-04-05 19:33:51,-8.14,159.59,81.68,80,89,12.48,overcast clouds,0.0,0.0
499,Tilichiki,RU,2020-04-05 19:33:51,60.47,166.1,9.66,94,35,3.53,scattered clouds,0.0,0.0
500,Lakes Entrance,AU,2020-04-05 19:33:51,-37.88,147.98,51.01,89,23,1.01,few clouds,0.0,0.0
501,Saryagash,KZ,2020-04-05 19:33:52,41.45,69.17,53.6,100,26,2.24,fog,0.0,0.0
502,Naryan-Mar,RU,2020-04-05 19:33:52,67.67,53.09,18.03,96,89,4.34,overcast clouds,0.0,0.0
503,Kasongo-Lunda,CD,2020-04-05 19:33:52,-6.47,16.82,72.95,78,99,1.52,light rain,0.53,0.0
504,Kahului,US,2020-04-05 19:32:06,20.89,-156.47,80.6,65,40,6.93,scattered clouds,0.0,0.0
505,Sola,VU,2020-04-05 19:33:52,-13.88,167.55,83.37,79,100,32.01,light rain,1.57,0.0
506,Vinukonda,IN,2020-04-05 19:33:52,16.05,79.75,76.66,93,31,5.73,scattered clouds,0.0,0.0
507,Talcahuano,CL,2020-04-05 19:33:52,-36.72,-73.12,66.2,55,0,17.22,clear sky,0.0,0.0
508,Kulykivka,UA,2020-04-05 19:33:52,51.37,31.65,37.49,72,0,7.11,clear sky,0.0,0.0
509,Gazojak,TM,2020-04-05 19:33:52,41.19,61.4,57.49,33,56,13.13,broken clouds,0.0,0.0
510,Trebisacce,IT,2020-04-05 19:33:52,39.87,16.53,60.8,59,90,10.29,overcast clouds,0.0,0.0
511,Belyy Yar,RU,2020-04-05 19:33:52,53.6,91.39,28.4,63,0,4.47,clear sky,0.0,0.0
512,Saint Anthony,US,2020-04-05 19:33:53,45.02,-93.22,55.99,30,1,11.41,clear sky,0.0,0.0
513,Erenhot,CN,2020-04-05 19:33:53,43.65,111.98,45.46,30,34,3.87,scattered clouds,0.0,0.0
514,Yokadouma,CM,2020-04-05 19:33:53,3.52,15.05,72.28,82,96,3.96,light rain,2.13,0.0
515,Puerto Colombia,CO,2020-04-05 19:33:53,10.99,-74.95,91.4,63,55,10.29,broken clouds,0.0,0.0
516,Remontnoye,RU,2020-04-05 19:33:53,46.56,43.65,37.4,51,0,8.95,clear sky,0.0,0.0
517,Galle,LK,2020-04-05 19:33:53,6.04,80.22,79.65,77,34,2.95,scattered clouds,0.0,0.0
518,Panzhihua,CN,2020-04-05 19:33:53,26.59,101.71,54.14,43,1,1.63,clear sky,0.0,0.0
519,Rio Branco,BR,2020-04-05 19:33:53,-9.97,-67.81,84.2,79,75,4.7,thunderstorm with heavy rain,0.0,0.0
520,Tevriz,RU,2020-04-05 19:33:54,57.51,72.4,35.22,96,100,5.59,light rain,0.57,0.0
521,Nanzhou,CN,2020-04-05 19:33:54,29.36,112.4,53.47,82,71,3.78,broken clouds,0.0,0.0
522,Roebourne,AU,2020-04-05 19:30:39,-20.78,117.13,79.84,57,93,9.22,overcast clouds,0.0,0.0
523,Ziro,IN,2020-04-05 19:33:54,27.63,93.83,45.14,45,18,4.92,few clouds,0.0,0.0
524,Nola,IT,2020-04-05 19:33:54,40.92,14.53,62.01,48,40,10.29,scattered clouds,0.0,0.0
525,Durham,US,2020-04-05 19:29:49,36.03,-78.87,73.99,49,20,9.17,few clouds,0.0,0.0
526,Dali,CN,2020-04-05 19:33:54,25.7,100.18,45.37,31,0,3.27,clear sky,0.0,0.0
527,Pitkyaranta,RU,2020-04-05 19:33:54,61.57,31.48,28.22,86,52,10.47,broken clouds,0.0,0.0
528,Luba,GQ,2020-04-05 19:33:54,3.46,8.55,82.4,94,20,8.21,few clouds,0.0,0.0
529,Seddon,AU,2020-04-05 19:29:00,-37.81,144.89,55.0,87,90,9.17,overcast clouds,0.0,0.0
530,Cockburn Town,TC,2020-04-05 19:33:55,21.46,-71.14,80.6,51,20,6.93,few clouds,0.0,0.0
531,Patrocinio,BR,2020-04-05 19:33:55,-18.94,-46.99,86.0,48,20,4.7,few clouds,0.0,0.0
532,Yemelyanovo,RU,2020-04-05 19:33:55,56.17,92.68,24.8,68,0,2.24,clear sky,0.0,0.0
533,Flinders,AU,2020-04-05 19:33:55,-34.58,150.86,60.8,63,0,11.41,clear sky,0.0,0.0
534,Samalkot,IN,2020-04-05 19:33:55,17.05,82.18,77.77,85,0,5.01,clear sky,0.0,0.0
535,Vidin,BG,2020-04-05 19:33:55,43.99,22.87,49.15,48,0,14.32,clear sky,0.0,0.0
536,Nanzhang,CN,2020-04-05 19:33:55,31.78,111.84,56.88,64,75,1.25,broken clouds,0.0,0.0
537,Archidona,ES,2020-04-05 19:33:55,37.1,-4.39,62.6,87,20,5.82,few clouds,0.0,0.0
538,Baruun-Urt,MN,2020-04-05 19:33:55,46.68,113.28,33.31,48,23,20.36,few clouds,0.0,0.0
539,Huarmey,PE,2020-04-05 19:33:56,-10.07,-78.15,79.9,61,5,8.61,clear sky,0.0,0.0
540,Nuuk,GL,2020-04-05 19:33:47,64.18,-51.72,32.0,85,2,8.05,clear sky,0.0,0.0
541,Dorado,PR,2020-04-05 19:33:56,18.46,-66.27,84.2,74,75,11.41,broken clouds,0.0,0.0
542,Price,US,2020-04-05 19:33:56,39.6,-110.81,59.0,28,75,10.29,broken clouds,0.0,0.0
543,Horizontina,BR,2020-04-05 19:33:56,-27.63,-54.31,86.0,44,75,4.88,broken clouds,0.0,0.0
544,Vilyuysk,RU,2020-04-05 19:33:56,63.76,121.62,30.81,97,96,10.56,overcast clouds,0.0,0.0
